{
  "cityPopulation":[
    {
      "city": "重庆市",
      "population": "2884.622",
      "lng": "106.504962",
      "lat": "29.533155"
    },
    {
      "city": "上海市",
      "population": "2301.913",
      "lng": "121.472644",
      "lat": "31.231706"
    },
    {
      "city": "北京市",
      "population": "1961.244",
      "lng": "116.405285",
      "lat": "39.904989"
    },
    {
      "city": "成都市",
      "population": "1404.765",
      "lng": "104.065735",
      "lat": "30.659462"
    },
    {
      "city": "天津市",
      "population": "1293.826",
      "lng": "117.190182",
      "lat": "39.125596"
    },
    {
      "city": "广州市",
      "population": "1270.087",
      "lng": "113.280637",
      "lat": "23.125178"
    },
    {
      "city": "保定市",
      "population": "1119.448",
      "lng": "115.482331",
      "lat": "38.867657"
    },
    {
      "city": "哈尔滨市",
      "population": "1063.69",
      "lng": "126.642464",
      "lat": "45.756967"
    },
    {
      "city": "苏州市",
      "population": "1046.610",
      "lng": "120.619585",
      "lat": "31.299379"
    },
    {
      "city": "深圳市",
      "population": "1035.7911",
      "lng": "114.085947",
      "lat": "22.547"
    },
    {
      "city": "南阳市",
      "population": "1026.312",
      "lng": "112.540918",
      "lat": "32.999082"
    },
    {
      "city": "石家庄市",
      "population": "1016.3813",
      "lng": "114.502461",
      "lat": "38.045474"
    },
    {
      "city": "临沂市",
      "population": "1003.9414",
      "lng": "118.326443",
      "lat": "35.065282"
    },
    {
      "city": "武汉市",
      "population": "978.5415",
      "lng": "114.298572",
      "lat": "30.584355"
    },
    {
      "city": "邯郸市",
      "population": "917.4716",
      "lng": "114.490686",
      "lat": "36.612273"
    },
    {
      "city": "温州市",
      "population": "912.2117",
      "lng": "120.672111",
      "lat": "28.000575"
    },
    {
      "city": "潍坊市",
      "population": "908.6218",
      "lng": "119.107078",
      "lat": "36.70925"
    },
    {
      "city": "周口市",
      "population": "895.3219",
      "lng": "114.649653",
      "lat": "33.620357"
    },
    {
      "city": "青岛市",
      "population": "871.5120",
      "lng": "120.355173",
      "lat": "36.082982"
    },
    {
      "city": "杭州市",
      "population": "870.0421",
      "lng": "120.153576",
      "lat": "30.287459"
    },
    {
      "city": "郑州市",
      "population": "862.6522",
      "lng": "113.665412",
      "lat": "34.757975"
    },
    {
      "city": "徐州市",
      "population": "858.0523",
      "lng": "117.184811",
      "lat": "34.261792"
    },
    {
      "city": "西安市",
      "population": "846.7824",
      "lng": "108.948024",
      "lat": "34.263161"
    },
    {
      "city": "赣州市",
      "population": "836.8425",
      "lng": "114.940278",
      "lat": "25.85097"
    },
    {
      "city": "菏泽市",
      "population": "828.7826",
      "lng": "115.469381",
      "lat": "35.246531"
    },
    {
      "city": "东莞市",
      "population": "822.0227",
      "lng": "113.746262",
      "lat": "23.046237"
    },
    {
      "city": "泉州市",
      "population": "812.8528",
      "lng": "118.589421",
      "lat": "24.908853"
    },
    {
      "city": "沈阳市",
      "population": "810.6229",
      "lng": "123.429096",
      "lat": "41.796767"
    },
    {
      "city": "济宁市",
      "population": "808.1930",
      "lng": "116.587245",
      "lat": "35.415393"
    },
    {
      "city": "南京市",
      "population": "800.4731",
      "lng": "118.767413",
      "lat": "32.041544"
    },
    {
      "city": "长春市",
      "population": "767.7132",
      "lng": "125.3245",
      "lat": "43.886841"
    },
    {
      "city": "宁波市",
      "population": "760.5733",
      "lng": "121.549792",
      "lat": "29.868388"
    },
    {
      "city": "阜阳市",
      "population": "760.34",
      "lng": "115.819729",
      "lat": "32.896969"
    },
    {
      "city": "唐山市",
      "population": "757.7335",
      "lng": "118.175393",
      "lat": "39.635113"
    },
    {
      "city": "商丘市",
      "population": "736.2536",
      "lng": "115.650497",
      "lat": "34.437054"
    },
    {
      "city": "南通市",
      "population": "728.2837",
      "lng": "120.864608",
      "lat": "32.016212"
    },
    {
      "city": "盐城市",
      "population": "726.0238",
      "lng": "120.139998",
      "lat": "33.377631"
    },
    {
      "city": "驻马店市",
      "population": "723.0739",
      "lng": "114.024736",
      "lat": "32.980169"
    },
    {
      "city": "佛山市",
      "population": "719.4340",
      "lng": "113.122717",
      "lat": "23.028762"
    },
    {
      "city": "衡阳市",
      "population": "714.1541",
      "lng": "112.607693",
      "lat": "26.900358"
    },
    {
      "city": "沧州市",
      "population": "713.4142",
      "lng": "116.857461",
      "lat": "38.310582"
    },
    {
      "city": "福州市",
      "population": "711.5443",
      "lng": "119.306239",
      "lat": "26.075302"
    },
    {
      "city": "邢台市",
      "population": "710.4144",
      "lng": "114.508851",
      "lat": "37.0682"
    },
    {
      "city": "邵阳市",
      "population": "707.1845",
      "lng": "111.46923",
      "lat": "27.237842"
    },
    {
      "city": "长沙市",
      "population": "704.4146",
      "lng": "112.982279",
      "lat": "28.19409"
    },
    {
      "city": "湛江市",
      "population": "699.3347",
      "lng": "110.364977",
      "lat": "21.274898"
    },
    {
      "city": "烟台市",
      "population": "696.8248",
      "lng": "121.391382",
      "lat": "37.539297"
    },
    {
      "city": "济南市",
      "population": "681.449",
      "lng": "117.000923",
      "lat": "36.675807"
    },
    {
      "city": "大连市",
      "population": "669.0450",
      "lng": "121.618622",
      "lat": "38.91459"
    },
    {
      "city": "南宁市",
      "population": "666.1651",
      "lng": "108.320004",
      "lat": "22.82402"
    },
    {
      "city": "上饶市",
      "population": "657.9752",
      "lng": "117.971185",
      "lat": "28.44442"
    },
    {
      "city": "洛阳市",
      "population": "654.9553",
      "lng": "112.434468",
      "lat": "34.663041"
    },
    {
      "city": "毕节地区",
      "population": "653.6454",
      "lng": "105.28501",
      "lat": "27.301693"
    },
    {
      "city": "昆明市",
      "population": "643.255",
      "lng": "102.712251",
      "lat": "25.040609"
    },
    {
      "city": "无锡市",
      "population": "637.2656",
      "lng": "120.301663",
      "lat": "31.574729"
    },
    {
      "city": "南充市",
      "population": "627.8657",
      "lng": "106.082974",
      "lat": "30.795281"
    },
    {
      "city": "黄冈市",
      "population": "616.2158",
      "lng": "114.879365",
      "lat": "30.447711"
    },
    {
      "city": "遵义市",
      "population": "612.759",
      "lng": "106.937265",
      "lat": "27.706626"
    },
    {
      "city": "信阳市",
      "population": "610.8760",
      "lng": "114.075031",
      "lat": "32.123274"
    },
    {
      "city": "台州市",
      "population": "596.8861",
      "lng": "121.428599",
      "lat": "28.661378"
    },
    {
      "city": "揭阳市",
      "population": "587.762",
      "lng": "116.355733",
      "lat": "23.543778"
    },
    {
      "city": "曲靖市",
      "population": "585.563",
      "lng": "103.797851",
      "lat": "25.501557"
    },
    {
      "city": "茂名市",
      "population": "581.7864",
      "lng": "110.919229",
      "lat": "21.659751"
    },
    {
      "city": "聊城市",
      "population": "578.9965",
      "lng": "115.980367",
      "lat": "36.456013"
    },
    {
      "city": "常德市",
      "population": "571.7266",
      "lng": "111.691347",
      "lat": "29.040225"
    },
    {
      "city": "新乡市",
      "population": "570.7867",
      "lng": "113.883991",
      "lat": "35.302616"
    },
    {
      "city": "合肥市",
      "population": "570.268",
      "lng": "117.283042",
      "lat": "31.86119"
    },
    {
      "city": "荆州市",
      "population": "569.1769",
      "lng": "112.23813",
      "lat": "30.326857"
    },
    {
      "city": "六安市",
      "population": "561.270",
      "lng": "116.507676",
      "lat": "31.752889"
    },
    {
      "city": "德州市",
      "population": "556.8271",
      "lng": "116.307428",
      "lat": "37.453968"
    },
    {
      "city": "襄阳市",
      "population": "550.0372",
      "lng": "112.144146",
      "lat": "32.042426"
    },
    {
      "city": "泰安市",
      "population": "549.4273",
      "lng": "117.129063",
      "lat": "36.194968"
    },
    {
      "city": "玉林市",
      "population": "548.7474",
      "lng": "110.154393",
      "lat": "22.63136"
    },
    {
      "city": "岳阳市",
      "population": "547.7975",
      "lng": "113.132855",
      "lat": "29.37029"
    },
    {
      "city": "达州市",
      "population": "546.8176",
      "lng": "107.502262",
      "lat": "31.209484"
    },
    {
      "city": "宜春市",
      "population": "541.9677",
      "lng": "114.391136",
      "lat": "27.8043"
    },
    {
      "city": "绥化市",
      "population": "541.6478",
      "lng": "126.99293",
      "lat": "46.637393"
    },
    {
      "city": "汕头市",
      "population": "539.179",
      "lng": "116.708463",
      "lat": "23.37102"
    },
    {
      "city": "齐齐哈尔市",
      "population": "536.780",
      "lng": "123.95792",
      "lat": "47.342081"
    },
    {
      "city": "金华市",
      "population": "536.1681",
      "lng": "119.649506",
      "lat": "29.089524"
    },
    {
      "city": "宿州市",
      "population": "535.382",
      "lng": "116.984084",
      "lat": "33.633891"
    },
    {
      "city": "安庆市",
      "population": "531.183",
      "lng": "117.043551",
      "lat": "30.50883"
    },
    {
      "city": "渭南市",
      "population": "528.6184",
      "lng": "109.502882",
      "lat": "34.499381"
    },
    {
      "city": "昭通市",
      "population": "521.385",
      "lng": "103.717216",
      "lat": "27.336999"
    },
    {
      "city": "永州市",
      "population": "518.0286",
      "lng": "111.608019",
      "lat": "26.434516"
    },
    {
      "city": "安阳市",
      "population": "517.2887",
      "lng": "114.352482",
      "lat": "36.103442"
    },
    {
      "city": "运城市",
      "population": "513.4888",
      "lng": "111.003957",
      "lat": "35.022778"
    },
    {
      "city": "南昌市",
      "population": "504.2689",
      "lng": "115.892151",
      "lat": "28.676493"
    },
    {
      "city": "绍兴市",
      "population": "491.2290",
      "lng": "120.582112",
      "lat": "29.997117"
    },
    {
      "city": "平顶山市",
      "population": "490.4491",
      "lng": "113.307718",
      "lat": "33.735241"
    },
    {
      "city": "咸阳市",
      "population": "489.4892",
      "lng": "108.705117",
      "lat": "34.333439"
    },
    {
      "city": "亳州市",
      "population": "485.193",
      "lng": "115.782939",
      "lat": "33.869338"
    },
    {
      "city": "孝感市",
      "population": "481.4594",
      "lng": "113.926655",
      "lat": "30.926423"
    },
    {
      "city": "吉安市",
      "population": "481.0395",
      "lng": "114.986373",
      "lat": "27.111699"
    },
    {
      "city": "漳州市",
      "population": "481.96",
      "lng": "117.661801",
      "lat": "24.510897"
    },
    {
      "city": "淮安市",
      "population": "479.9997",
      "lng": "119.021265",
      "lat": "33.597506"
    },
    {
      "city": "桂林市",
      "population": "474.898",
      "lng": "110.299121",
      "lat": "25.274215"
    },
    {
      "city": "怀化市",
      "population": "474.1999",
      "lng": "109.97824",
      "lat": "27.550082"
    },
    {
      "city": "九江市",
      "population": "472.88100",
      "lng": "115.992811",
      "lat": "29.712034"
    },
    {
      "city": "宿迁市",
      "population": "471.56101",
      "lng": "118.275162",
      "lat": "33.963008"
    },
    {
      "city": "开封市",
      "population": "467.62102",
      "lng": "114.341447",
      "lat": "34.797049"
    },
    {
      "city": "泰州市",
      "population": "461.86103",
      "lng": "119.915176",
      "lat": "32.484882"
    },
    {
      "city": "绵阳市",
      "population": "461.39104",
      "lng": "104.741722",
      "lat": "31.46402"
    },
    {
      "city": "惠州市",
      "population": "459.7105",
      "lng": "114.412599",
      "lat": "23.079404"
    },
    {
      "city": "常州市",
      "population": "459.2106",
      "lng": "119.946973",
      "lat": "31.772752"
    },
    {
      "city": "郴州市",
      "population": "458.18107",
      "lng": "113.032067",
      "lat": "25.793589"
    },
    {
      "city": "凉山州",
      "population": "453.28108",
      "lng": "102.258746",
      "lat": "27.886762"
    },
    {
      "city": "淄博市",
      "population": "453.06109",
      "lng": "118.047648",
      "lat": "36.814939"
    },
    {
      "city": "嘉兴市",
      "population": "450.17110",
      "lng": "120.750865",
      "lat": "30.762653"
    },
    {
      "city": "红河州",
      "population": "450.1111",
      "lng": "103.384182",
      "lat": "23.366775"
    },
    {
      "city": "宜宾市",
      "population": "447.2112",
      "lng": "104.630825",
      "lat": "28.760189"
    },
    {
      "city": "扬州市",
      "population": "445.98113",
      "lng": "119.421003",
      "lat": "32.393159"
    },
    {
      "city": "江门市",
      "population": "444.89114",
      "lng": "113.094942",
      "lat": "22.590431"
    },
    {
      "city": "吉林市",
      "population": "441.47115",
      "lng": "126.55302",
      "lat": "43.843577"
    },
    {
      "city": "连云港市",
      "population": "439.39116",
      "lng": "119.178821",
      "lat": "34.600018"
    },
    {
      "city": "廊坊市",
      "population": "435.88117",
      "lng": "116.704441",
      "lat": "39.523927"
    },
    {
      "city": "张家口市",
      "population": "434.55118",
      "lng": "114.884091",
      "lat": "40.811901"
    },
    {
      "city": "赤峰市",
      "population": "434.12119",
      "lng": "118.956806",
      "lat": "42.275317"
    },
    {
      "city": "衡水市",
      "population": "434.08120",
      "lng": "115.665993",
      "lat": "37.735097"
    },
    {
      "city": "贵阳市",
      "population": "432.46121",
      "lng": "106.713478",
      "lat": "26.578343"
    },
    {
      "city": "临汾市",
      "population": "431.66122",
      "lng": "111.517973",
      "lat": "36.08415"
    },
    {
      "city": "益阳市",
      "population": "431.31123",
      "lng": "112.355042",
      "lat": "28.570066"
    },
    {
      "city": "许昌市",
      "population": "430.72124",
      "lng": "113.826063",
      "lat": "34.022956"
    },
    {
      "city": "梅州市",
      "population": "424.01125",
      "lng": "116.117582",
      "lat": "24.299112"
    },
    {
      "city": "泸州市",
      "population": "421.84126",
      "lng": "105.443348",
      "lat": "28.889138"
    },
    {
      "city": "太原市",
      "population": "420.16127",
      "lng": "112.549248",
      "lat": "37.857014"
    },
    {
      "city": "贵港市",
      "population": "411.88128",
      "lng": "109.602146",
      "lat": "23.0936"
    },
    {
      "city": "宜昌市",
      "population": "405.97129",
      "lng": "111.290843",
      "lat": "30.702636"
    },
    {
      "city": "喀什地区",
      "population": "397.94130",
      "lng": "75.989138",
      "lat": "39.467664"
    },
    {
      "city": "滁州市",
      "population": "393.8131",
      "lng": "118.316264",
      "lat": "32.303627"
    },
    {
      "city": "肇庆市",
      "population": "391.81132",
      "lng": "112.472529",
      "lat": "23.051546"
    },
    {
      "city": "抚州市",
      "population": "391.23133",
      "lng": "116.358351",
      "lat": "27.98385"
    },
    {
      "city": "巢湖市",
      "population": "387.3134",
      "lng": "117.874155",
      "lat": "31.600518"
    },
    {
      "city": "株洲市",
      "population": "385.56135",
      "lng": "113.151737",
      "lat": "27.835806"
    },
    {
      "city": "娄底市",
      "population": "378.56136",
      "lng": "112.008497",
      "lat": "27.728136"
    },
    {
      "city": "柳州市",
      "population": "375.87137",
      "lng": "109.411703",
      "lat": "24.314617"
    },
    {
      "city": "湘潭市",
      "population": "374.86138",
      "lng": "112.944052",
      "lat": "27.82973"
    },
    {
      "city": "滨州市",
      "population": "374.85139",
      "lng": "118.016974",
      "lat": "37.383542"
    },
    {
      "city": "枣庄市",
      "population": "372.93140",
      "lng": "117.557964",
      "lat": "34.856424"
    },
    {
      "city": "吕梁市",
      "population": "372.71141",
      "lng": "111.134335",
      "lat": "37.524366"
    },
    {
      "city": "宝鸡市",
      "population": "371.67142",
      "lng": "107.14487",
      "lat": "34.369315"
    },
    {
      "city": "内江市",
      "population": "370.28143",
      "lng": "105.066138",
      "lat": "29.58708"
    },
    {
      "city": "清远市",
      "population": "369.84144",
      "lng": "113.051227",
      "lat": "23.685022"
    },
    {
      "city": "资阳市",
      "population": "366.51145",
      "lng": "104.641917",
      "lat": "30.122211"
    },
    {
      "city": "鞍山市",
      "population": "364.59146",
      "lng": "122.995632",
      "lat": "41.110626"
    },
    {
      "city": "兰州市",
      "population": "361.62147",
      "lng": "103.823557",
      "lat": "36.058039"
    },
    {
      "city": "德阳市",
      "population": "361.58148",
      "lng": "104.398651",
      "lat": "31.127991"
    },
    {
      "city": "濮阳市",
      "population": "359.85149",
      "lng": "115.041299",
      "lat": "35.768234"
    },
    {
      "city": "焦作市",
      "population": "353.99150",
      "lng": "113.238266",
      "lat": "35.23904"
    },
    {
      "city": "厦门市",
      "population": "353.13151",
      "lng": "118.11022",
      "lat": "24.490474"
    },
    {
      "city": "文山州",
      "population": "351.8152",
      "lng": "104.24401",
      "lat": "23.36951"
    },
    {
      "city": "黔东南州",
      "population": "348.06153",
      "lng": "107.977488",
      "lat": "26.583352"
    },
    {
      "city": "承德市",
      "population": "347.32154",
      "lng": "117.939152",
      "lat": "40.976204"
    },
    {
      "city": "百色市",
      "population": "346.68155",
      "lng": "106.616285",
      "lat": "23.897742"
    },
    {
      "city": "大理州",
      "population": "345.6156",
      "lng": "100.225668",
      "lat": "25.589449"
    },
    {
      "city": "汉中市",
      "population": "341.62157",
      "lng": "107.028621",
      "lat": "33.077668"
    },
    {
      "city": "四平市",
      "population": "338.63158",
      "lng": "124.370785",
      "lat": "43.170344"
    },
    {
      "city": "河池市",
      "population": "336.92159",
      "lng": "108.062105",
      "lat": "24.695899"
    },
    {
      "city": "榆林市",
      "population": "335.14160",
      "lng": "109.741193",
      "lat": "38.290162"
    },
    {
      "city": "十堰市",
      "population": "334.08161",
      "lng": "110.787916",
      "lat": "32.646907"
    },
    {
      "city": "长治市",
      "population": "333.46162",
      "lng": "113.113556",
      "lat": "36.191112"
    },
    {
      "city": "大同市",
      "population": "331.81163",
      "lng": "113.295259",
      "lat": "40.09031"
    },
    {
      "city": "恩施州",
      "population": "329.03164",
      "lng": "109.48699",
      "lat": "30.283114"
    },
    {
      "city": "巴中市",
      "population": "328.38165",
      "lng": "106.753669",
      "lat": "31.858809"
    },
    {
      "city": "天水市",
      "population": "326.25166",
      "lng": "105.724998",
      "lat": "34.578529"
    },
    {
      "city": "遂宁市",
      "population": "325.26167",
      "lng": "105.571331",
      "lat": "30.513311"
    },
    {
      "city": "晋中市",
      "population": "324.94168",
      "lng": "112.736465",
      "lat": "37.696495"
    },
    {
      "city": "乐山市",
      "population": "323.58169",
      "lng": "103.761263",
      "lat": "29.582024"
    },
    {
      "city": "黔南州",
      "population": "323.12170",
      "lng": "107.517156",
      "lat": "26.258219"
    },
    {
      "city": "广安市",
      "population": "320.55171",
      "lng": "106.633369",
      "lat": "30.456398"
    },
    {
      "city": "蚌埠市",
      "population": "316.4172",
      "lng": "117.363228",
      "lat": "32.939667"
    },
    {
      "city": "通辽市",
      "population": "313.92173",
      "lng": "122.263119",
      "lat": "43.617429"
    },
    {
      "city": "锦州市",
      "population": "312.65174",
      "lng": "121.135742",
      "lat": "41.119269"
    },
    {
      "city": "中山市",
      "population": "312.09175",
      "lng": "113.382391",
      "lat": "22.521113"
    },
    {
      "city": "镇江市",
      "population": "311.34176",
      "lng": "119.452753",
      "lat": "32.204402"
    },
    {
      "city": "乌鲁木齐市",
      "population": "311.03177",
      "lng": "87.617733",
      "lat": "43.792818"
    },
    {
      "city": "铜仁地区",
      "population": "309.24178",
      "lng": "109.191555",
      "lat": "27.718346"
    },
    {
      "city": "钦州市",
      "population": "307.97179",
      "lng": "108.624175",
      "lat": "21.967127"
    },
    {
      "city": "忻州市",
      "population": "306.75180",
      "lng": "112.733538",
      "lat": "38.41769"
    },
    {
      "city": "朝阳市",
      "population": "304.46181",
      "lng": "120.451176",
      "lat": "41.576758"
    },
    {
      "city": "秦皇岛市",
      "population": "298.76182",
      "lng": "119.586579",
      "lat": "39.942531"
    },
    {
      "city": "河源市",
      "population": "295.3183",
      "lng": "114.697802",
      "lat": "23.746266"
    },
    {
      "city": "眉山市",
      "population": "295.05184",
      "lng": "103.492488",
      "lat": "29.597478"
    },
    {
      "city": "汕尾市",
      "population": "293.57185",
      "lng": "115.364238",
      "lat": "22.774485"
    },
    {
      "city": "大庆市",
      "population": "290.45186",
      "lng": "125.11272",
      "lat": "46.590734"
    },
    {
      "city": "湖州市",
      "population": "289.35187",
      "lng": "120.102398",
      "lat": "30.867198"
    },
    {
      "city": "梧州市",
      "population": "288.22188",
      "lng": "111.297604",
      "lat": "23.474803"
    },
    {
      "city": "松原市",
      "population": "288.11189",
      "lng": "124.823608",
      "lat": "45.118243"
    },
    {
      "city": "荆门市",
      "population": "287.37190",
      "lng": "112.204251",
      "lat": "31.03542"
    },
    {
      "city": "呼和浩特市",
      "population": "286.66191",
      "lng": "111.670801",
      "lat": "40.818311"
    },
    {
      "city": "六盘水市",
      "population": "285.12192",
      "lng": "104.846743",
      "lat": "26.584643"
    },
    {
      "city": "韶关市",
      "population": "282.66193",
      "lng": "113.591544",
      "lat": "24.801322"
    },
    {
      "city": "宁德市",
      "population": "282.2194",
      "lng": "119.527082",
      "lat": "26.65924"
    },
    {
      "city": "黔西南州",
      "population": "280.59195",
      "lng": "104.897971",
      "lat": "25.08812"
    },
    {
      "city": "威海市",
      "population": "280.48196",
      "lng": "122.116394",
      "lat": "37.509691"
    },
    {
      "city": "日照市",
      "population": "280.11197",
      "lng": "119.461208",
      "lat": "35.428588"
    },
    {
      "city": "牡丹江市",
      "population": "279.87198",
      "lng": "129.618602",
      "lat": "44.582962"
    },
    {
      "city": "莆田市",
      "population": "277.85199",
      "lng": "119.007558",
      "lat": "25.431011"
    },
    {
      "city": "铁岭市",
      "population": "271.77200",
      "lng": "123.844279",
      "lat": "42.290585"
    },
    {
      "city": "定西市",
      "population": "269.86201",
      "lng": "104.626294",
      "lat": "35.579578"
    },
    {
      "city": "楚雄州",
      "population": "268.4202",
      "lng": "101.546046",
      "lat": "25.041988"
    },
    {
      "city": "自贡市",
      "population": "267.89203",
      "lng": "104.773447",
      "lat": "29.352765"
    },
    {
      "city": "潮州市",
      "population": "266.98204",
      "lng": "116.632301",
      "lat": "23.661701"
    },
    {
      "city": "包头市",
      "population": "265.04205",
      "lng": "109.840405",
      "lat": "40.658168"
    },
    {
      "city": "南平市",
      "population": "264.55206",
      "lng": "118.178459",
      "lat": "26.635627"
    },
    {
      "city": "安康市",
      "population": "262.99207",
      "lng": "109.029273",
      "lat": "32.6903"
    },
    {
      "city": "葫芦岛市",
      "population": "262.35208",
      "lng": "120.856394",
      "lat": "40.755572"
    },
    {
      "city": "陇南市",
      "population": "256.77209",
      "lng": "104.929379",
      "lat": "33.388598"
    },
    {
      "city": "龙岩市",
      "population": "255.95210",
      "lng": "117.02978",
      "lat": "25.091603"
    },
    {
      "city": "佳木斯市",
      "population": "255.21211",
      "lng": "130.361634",
      "lat": "46.809606"
    },
    {
      "city": "呼伦贝尔市",
      "population": "254.93212",
      "lng": "119.758168",
      "lat": "49.215333"
    },
    {
      "city": "湘西州",
      "population": "254.78213",
      "lng": "109.739735",
      "lat": "28.314296"
    },
    {
      "city": "漯河市",
      "population": "254.41214",
      "lng": "114.026405",
      "lat": "33.575855"
    },
    {
      "city": "普洱市",
      "population": "254.3215",
      "lng": "100.972344",
      "lat": "22.777321"
    },
    {
      "city": "宣城市",
      "population": "253.3216",
      "lng": "118.757995",
      "lat": "30.945667"
    },
    {
      "city": "保山市",
      "population": "250.6217",
      "lng": "99.167133",
      "lat": "25.111802"
    },
    {
      "city": "三明市",
      "population": "250.34218",
      "lng": "117.635001",
      "lat": "26.265444"
    },
    {
      "city": "广元市",
      "population": "248.41219",
      "lng": "105.829757",
      "lat": "32.433668"
    },
    {
      "city": "伊犁州",
      "population": "248.26220",
      "lng": "81.317946",
      "lat": "43.92186"
    },
    {
      "city": "咸宁市",
      "population": "246.26221",
      "lng": "114.328963",
      "lat": "29.832798"
    },
    {
      "city": "丹东市",
      "population": "244.47222",
      "lng": "124.383044",
      "lat": "40.124296"
    },
    {
      "city": "临沧市",
      "population": "243.223",
      "lng": "100.08697",
      "lat": "23.886567"
    },
    {
      "city": "黄石市",
      "population": "242.93224",
      "lng": "115.077048",
      "lat": "30.220074"
    },
    {
      "city": "营口市",
      "population": "242.85225",
      "lng": "122.235151",
      "lat": "40.667432"
    },
    {
      "city": "阳江市",
      "population": "242.18226",
      "lng": "111.975107",
      "lat": "21.859222"
    },
    {
      "city": "阿克苏地区",
      "population": "237.09227",
      "lng": "80.265068",
      "lat": "41.170712"
    },
    {
      "city": "云浮市",
      "population": "236.01228",
      "lng": "112.044439",
      "lat": "22.929801"
    },
    {
      "city": "商洛市",
      "population": "234.17229",
      "lng": "109.939776",
      "lat": "33.868319"
    },
    {
      "city": "淮南市",
      "population": "233.4230",
      "lng": "117.018329",
      "lat": "32.647574"
    },
    {
      "city": "通化市",
      "population": "232.52231",
      "lng": "125.936501",
      "lat": "41.721177"
    },
    {
      "city": "玉溪市",
      "population": "230.4232",
      "lng": "102.543907",
      "lat": "24.350461"
    },
    {
      "city": "安顺市",
      "population": "229.73233",
      "lng": "105.932188",
      "lat": "26.245544"
    },
    {
      "city": "晋城市",
      "population": "227.92234",
      "lng": "112.851274",
      "lat": "35.497553"
    },
    {
      "city": "延边州",
      "population": "227.16235",
      "lng": "129.513228",
      "lat": "42.904823"
    },
    {
      "city": "芜湖市",
      "population": "226.3236",
      "lng": "118.376451",
      "lat": "31.326319"
    },
    {
      "city": "三门峡市",
      "population": "223.39237",
      "lng": "111.194099",
      "lat": "34.777338"
    },
    {
      "city": "庆阳市",
      "population": "221.12238",
      "lng": "107.638372",
      "lat": "35.734218"
    },
    {
      "city": "西宁市",
      "population": "220.87239",
      "lng": "101.778916",
      "lat": "36.623178"
    },
    {
      "city": "延安市",
      "population": "218.7240",
      "lng": "109.49081",
      "lat": "36.596537"
    },
    {
      "city": "随州市",
      "population": "216.22241",
      "lng": "113.37377",
      "lat": "31.717497"
    },
    {
      "city": "乌兰察布市",
      "population": "214.36242",
      "lng": "113.114543",
      "lat": "41.034126"
    },
    {
      "city": "抚顺市",
      "population": "213.81243",
      "lng": "123.921109",
      "lat": "41.875956"
    },
    {
      "city": "衢州市",
      "population": "212.27244",
      "lng": "118.87263",
      "lat": "28.941708"
    },
    {
      "city": "丽水市",
      "population": "211.7245",
      "lng": "119.921786",
      "lat": "28.451993"
    },
    {
      "city": "淮北市",
      "population": "211.4246",
      "lng": "116.794664",
      "lat": "33.971707"
    },
    {
      "city": "来宾市",
      "population": "209.97247",
      "lng": "109.229772",
      "lat": "23.733766"
    },
    {
      "city": "平凉市",
      "population": "206.8248",
      "lng": "106.684691",
      "lat": "35.54279"
    },
    {
      "city": "海口市",
      "population": "204.62249",
      "lng": "110.33119",
      "lat": "20.031971"
    },
    {
      "city": "东营市",
      "population": "203.53250",
      "lng": "118.66471",
      "lat": "37.434564"
    },
    {
      "city": "白城市",
      "population": "203.31251",
      "lng": "122.841114",
      "lat": "45.619026"
    },
    {
      "city": "和田地区",
      "population": "201.44252",
      "lng": "79.92533",
      "lat": "37.110687"
    },
    {
      "city": "崇左市",
      "population": "199.43253",
      "lng": "107.353926",
      "lat": "22.404108"
    },
    {
      "city": "银川市",
      "population": "199.31254",
      "lng": "106.278179",
      "lat": "38.46637"
    },
    {
      "city": "贺州市",
      "population": "195.41255",
      "lng": "111.552056",
      "lat": "24.414141"
    },
    {
      "city": "临夏州",
      "population": "194.67256",
      "lng": "103.212006",
      "lat": "35.599446"
    },
    {
      "city": "鄂尔多斯市",
      "population": "194.07257",
      "lng": "109.99029",
      "lat": "39.817179"
    },
    {
      "city": "鸡西市",
      "population": "186.22258",
      "lng": "130.975966",
      "lat": "45.300046"
    },
    {
      "city": "辽阳市",
      "population": "185.88259",
      "lng": "123.18152",
      "lat": "41.269402"
    },
    {
      "city": "萍乡市",
      "population": "185.45260",
      "lng": "113.852186",
      "lat": "27.622946"
    },
    {
      "city": "阜新市",
      "population": "181.93261",
      "lng": "121.648962",
      "lat": "42.011796"
    },
    {
      "city": "武威市",
      "population": "181.51262",
      "lng": "102.634697",
      "lat": "37.929996"
    },
    {
      "city": "朔州市",
      "population": "171.49263",
      "lng": "112.433387",
      "lat": "39.331261"
    },
    {
      "city": "本溪市",
      "population": "170.95264",
      "lng": "123.770519",
      "lat": "41.297909"
    },
    {
      "city": "白银市",
      "population": "170.88265",
      "lng": "104.173606",
      "lat": "36.54568"
    },
    {
      "city": "黑河市",
      "population": "167.39266",
      "lng": "127.499023",
      "lat": "50.249585"
    },
    {
      "city": "巴彦淖尔市",
      "population": "166.99267",
      "lng": "107.416959",
      "lat": "40.757402"
    },
    {
      "city": "兴安盟",
      "population": "161.33268",
      "lng": "122.070317",
      "lat": "46.076268"
    },
    {
      "city": "景德镇市",
      "population": "158.75269",
      "lng": "117.214664",
      "lat": "29.29256"
    },
    {
      "city": "鹤壁市",
      "population": "156.91270",
      "lng": "114.295444",
      "lat": "35.748236"
    },
    {
      "city": "珠海市",
      "population": "156.02271",
      "lng": "113.553986",
      "lat": "22.224979"
    },
    {
      "city": "北海市",
      "population": "153.93272",
      "lng": "109.119254",
      "lat": "21.473343"
    },
    {
      "city": "雅安市",
      "population": "150.73273",
      "lng": "103.001033",
      "lat": "29.987722"
    },
    {
      "city": "张家界市",
      "population": "147.65274",
      "lng": "110.479921",
      "lat": "29.127401"
    },
    {
      "city": "双鸭山市",
      "population": "146.26275",
      "lng": "131.157304",
      "lat": "46.643442"
    },
    {
      "city": "昌吉州",
      "population": "142.86276",
      "lng": "87.304012",
      "lat": "44.014577"
    },
    {
      "city": "池州市",
      "population": "140.3277",
      "lng": "117.489157",
      "lat": "30.656037"
    },
    {
      "city": "海东地区",
      "population": "139.68278",
      "lng": "102.10327",
      "lat": "36.502916"
    },
    {
      "city": "盘锦市",
      "population": "139.25279",
      "lng": "122.06957",
      "lat": "41.124484"
    },
    {
      "city": "阳泉市",
      "population": "136.85280",
      "lng": "113.583285",
      "lat": "37.861188"
    },
    {
      "city": "马鞍山市",
      "population": "136.6281",
      "lng": "118.507906",
      "lat": "31.689362"
    },
    {
      "city": "黄山市",
      "population": "135.9282",
      "lng": "118.317325",
      "lat": "29.709239"
    },
    {
      "city": "白山市",
      "population": "129.66284",
      "lng": "126.427839",
      "lat": "41.942505"
    },
    {
      "city": "巴音郭楞州",
      "population": "127.85285",
      "lng": "86.150969",
      "lat": "41.768552"
    },
    {
      "city": "吴忠市",
      "population": "127.38286",
      "lng": "106.199409",
      "lat": "37.986165"
    },
    {
      "city": "丽江市",
      "population": "124.5287",
      "lng": "100.233026",
      "lat": "26.872108"
    },
    {
      "city": "固原市",
      "population": "122.82288",
      "lng": "106.285241",
      "lat": "36.004561"
    },
    {
      "city": "塔城地区",
      "population": "121.92289",
      "lng": "82.985732",
      "lat": "46.746301"
    },
    {
      "city": "攀枝花市",
      "population": "121.41290",
      "lng": "101.716007",
      "lat": "26.580446"
    },
    {
      "city": "德宏州",
      "population": "121.1291",
      "lng": "98.578363",
      "lat": "24.436694"
    },
    {
      "city": "张掖市",
      "population": "119.95292",
      "lng": "100.455472",
      "lat": "38.932897"
    },
    {
      "city": "辽源市",
      "population": "117.66293",
      "lng": "125.145349",
      "lat": "42.902692"
    },
    {
      "city": "伊春市",
      "population": "114.81294",
      "lng": "128.899396",
      "lat": "47.724775"
    },
    {
      "city": "新余市",
      "population": "113.89295",
      "lng": "114.930835",
      "lat": "27.810834"
    },
    {
      "city": "版纳州",
      "population": "113.4296",
      "lng": "100.797941",
      "lat": "22.001724"
    },
    {
      "city": "鹰潭市",
      "population": "112.49297",
      "lng": "117.033838",
      "lat": "28.238638"
    },
    {
      "city": "舟山市",
      "population": "112.13298",
      "lng": "122.106863",
      "lat": "30.016028"
    },
    {
      "city": "酒泉市",
      "population": "109.59299",
      "lng": "98.510795",
      "lat": "39.744023"
    },
    {
      "city": "甘孜州",
      "population": "109.19300",
      "lng": "101.963815",
      "lat": "30.050663"
    },
    {
      "city": "中卫市",
      "population": "108.08301",
      "lng": "105.189568",
      "lat": "37.514951"
    },
    {
      "city": "鹤岗市",
      "population": "105.87302",
      "lng": "130.277487",
      "lat": "47.332085"
    },
    {
      "city": "鄂州市",
      "population": "104.87303",
      "lng": "114.890593",
      "lat": "30.396536"
    },
    {
      "city": "锡林郭勒盟",
      "population": "102.8304",
      "lng": "116.090996",
      "lat": "43.944018"
    },
    {
      "city": "七台河市",
      "population": "92.04305",
      "lng": "131.015584",
      "lat": "45.771266"
    },
    {
      "city": "阿坝州",
      "population": "89.87306",
      "lng": "102.221374",
      "lat": "31.899792"
    },
    {
      "city": "防城港市",
      "population": "86.69307",
      "lng": "108.345478",
      "lat": "21.614631"
    },
    {
      "city": "铜川市",
      "population": "83.44308",
      "lng": "108.979608",
      "lat": "34.916582"
    },
    {
      "city": "石嘴山市",
      "population": "72.55309",
      "lng": "106.376173",
      "lat": "39.01333"
    },
    {
      "city": "铜陵市",
      "population": "72.4310",
      "lng": "117.816576",
      "lat": "30.929935"
    },
    {
      "city": "日喀则地区",
      "population": "70.33311",
      "lng": "88.885148",
      "lat": "29.267519"
    },
    {
      "city": "甘南州",
      "population": "68.91312",
      "lng": "123.506034",
      "lat": "47.917838"
    },
    {
      "city": "三亚市",
      "population": "68.54313",
      "lng": "109.508268",
      "lat": "18.247872"
    },
    {
      "city": "济源市",
      "population": "67.57314",
      "lng": "112.590047",
      "lat": "35.090378"
    },
    {
      "city": "昌都地区",
      "population": "65.75315",
      "lng": "97.178452",
      "lat": "31.136875"
    },
    {
      "city": "吐鲁番地区",
      "population": "62.27316",
      "lng": "89.184078",
      "lat": "42.947613"
    },
    {
      "city": "阿勒泰地区",
      "population": "60.33317",
      "lng": "88.13963",
      "lat": "47.848393"
    },
    {
      "city": "哈密地区",
      "population": "57.24318",
      "lng": "93.51316",
      "lat": "42.833248"
    },
    {
      "city": "拉萨市",
      "population": "55.94319",
      "lng": "91.132212",
      "lat": "29.660361"
    },
    {
      "city": "怒江州",
      "population": "53.4320",
      "lng": "98.854304",
      "lat": "25.850949"
    },
    {
      "city": "乌海市",
      "population": "53.29321",
      "lng": "106.825563",
      "lat": "39.673734"
    },
    {
      "city": "克孜勒苏州",
      "population": "52.56322",
      "lng": "76.172825",
      "lat": "39.713431"
    },
    {
      "city": "大兴安岭地区",
      "population": "51.16323",
      "lng": "124.711526",
      "lat": "52.335262"
    },
    {
      "city": "海西州",
      "population": "48.93324",
      "lng": "97.370785",
      "lat": "37.374663"
    },
    {
      "city": "金昌市",
      "population": "46.41325",
      "lng": "102.187888",
      "lat": "38.514238"
    },
    {
      "city": "那曲地区",
      "population": "46.24326",
      "lng": "92.060214",
      "lat": "31.476004"
    },
    {
      "city": "博尔塔拉州",
      "population": "44.37327",
      "lng": "82.074778",
      "lat": "44.903258"
    },
    {
      "city": "海南州",
      "population": "44.17328",
      "lng": "106.884789",
      "lat": "39.44153"
    },
    {
      "city": "迪庆州",
      "population": "40.329",
      "lng": "99.706463",
      "lat": "27.826853"
    },
    {
      "city": "克拉玛依市",
      "population": "39.1330",
      "lng": "84.873946",
      "lat": "45.595886"
    },
    {
      "city": "玉树州",
      "population": "37.84331",
      "lng": "97.008522",
      "lat": "33.004049"
    },
    {
      "city": "山南地区",
      "population": "32.9332",
      "lng": "91.766529",
      "lat": "29.236023"
    },
    {
      "city": "海北州",
      "population": "27.33333",
      "lng": "100.901059",
      "lat": "36.959435"
    },
    {
      "city": "黄南州",
      "population": "25.67334",
      "lng": "102.019988",
      "lat": "35.517744"
    },
    {
      "city": "嘉峪关市",
      "population": "23.19335",
      "lng": "98.277304",
      "lat": "39.786529"
    },
    {
      "city": "阿拉善盟",
      "population": "23.13336",
      "lng": "105.706422",
      "lat": "38.844814"
    },
    {
      "city": "林芝地区",
      "population": "19.51338",
      "lng": "94.362348",
      "lat": "29.654693"
    },
    {
      "city": "果洛州",
      "population": "18.17339",
      "lng": "100.242143",
      "lat": "34.4736"
    }
  ]
}